{"qphwrH9bpZ_aGI8f6LRHiQ": {"name": "Schnitzels European Flavours", "types": ["Modern European", "Pubs"], "address": "158 Pitt Street, Cornwall, ON K6J 3P4, Canada", "latitude": 45.01786543, "longitude": -74.72861036937894}, "6bfFpA4qt84uLRfKCzaxfg": {"name": "Edward's Bistro", "types": ["Breakfast & Brunch", "Bistros", "Gastropubs"], "address": "35 second st east, Cornwall, ON K6H 1Y2, Canada", "latitude": 45.01876, "longitude": -74.72742}, "NOcG84wP20so-ckzbhCcAQ": {"name": "Thum's Kitchen Thai Cuisine", "types": ["Thai"], "address": "1615 Pitt Street, Cornwall, ON K6H 3G3, Canada", "latitude": 45.0399017, "longitude": -74.7448578}, "7rfW8lgjIpk6b-YGWD6Pdg": {"name": "Shoeless Joe's Sports Grill - Cornwall", "types": ["Sports Bars", "Burgers", "Beer Bar"], "address": "1110 Brookdale Ave, Cornwall, ON K6J 4P4, Canada", "latitude": 45.025548, "longitude": -74.752148}, "L8BNiWQVuUF2icMKTDGajA": {"name": "Thai Khmer Cuisine", "types": ["Thai", "Cambodian"], "address": "417 Thirteenth Street W, Cornwall, ON K6J 3H4, Canada", "latitude": 45.0310119, "longitude": -74.7487829}, "LEsng7ayvutvgAwabRs8Ag": {"name": "Casa Paolo Ristorante", "types": ["Italian"], "address": "1600 Vincent Massey Drive, Cornwall, ON K6H 5R6, Canada", "latitude": 45.0307699, "longitude": -74.76155}, "QH0-fajgdJeKqTcw1V3j4A": {"name": "Bangkok Noodle Soup & Grill", "types": ["Thai", "Noodles"], "address": "1503 Pitt Street, Cornwall, ON K6J 3T9, Canada", "latitude": 45.0370194958702, "longitude": -74.7424535641224}, "-c9pS8RVsT1KYIRyCy-9_A": {"name": "Tiny Table", "types": ["Vietnamese", "Thai"], "address": "11 4th Street W, Cornwall, ON K6J 3P9, Canada", "latitude": 45.0211983, "longitude": -74.7311783}, "pt63PPTYl0Pl-W6OedFU8w": {"name": "Joey's Seafood Restaurants", "types": ["Seafood", "Salad", "Fish & Chips"], "address": "830 Second Street W, Cornwall, ON K6J 1H7, Canada", "latitude": 45.01456056879645, "longitude": -74.7492781}, "S9m7ouKmpmsNdyK2V0y_jw": {"name": "Esca Gourmet Pizza + Bar", "types": ["Pizza", "Italian"], "address": "317 Pitt Street, Cornwall, ON K6J 3R1, Canada", "latitude": 45.0203599, "longitude": -74.72966}, "aLBhK587X2CpWs7YIf0tRw": {"name": "Wow India", "types": ["Indian", "Sri Lankan", "Noodles"], "address": "704 Fourteenth St W, Unit 1, Cornwall, ON K6J 5T9, Canada", "latitude": 45.03078322536043, "longitude": -74.7555162012577}, "QPPLveeqHLavYl4nX2GvXw": {"name": "Philos Restaurant", "types": ["Canadian (New)", "Greek"], "address": "1613 Pitt Street, Cornwall, ON K6J 3T9, Canada", "latitude": 45.03979, "longitude": -74.7447}, "MlvOKg420THnWbJGXZQQuA": {"name": "Family Corner Restaurant", "types": ["Canadian (New)", "Breakfast & Brunch", "Indian"], "address": "900 Pitt Street, Cornwall, ON K6J 3S5, Canada", "latitude": 45.02893, "longitude": -74.73539}, "_dq5jGXJDPr-lYlekN58GA": {"name": "Ruby Restaurant", "types": ["Chinese"], "address": "315 Montreal Road, Cornwall, ON K6H 1B6, Canada", "latitude": 45.01831, "longitude": -74.7114299}, "JP3jdG8lNQeE3jLAiSVpzg": {"name": "Eight Zero Zero", "types": ["Canadian (New)"], "address": "903 Brookdale Ave, Cornwall, ON K6J 4P3, Canada", "latitude": 45.02441, "longitude": -74.74861}, "lZr-PGeVQN-Zpyf-xQrKUg": {"name": "Roma's", "types": ["Pizza"], "address": "200 McConnell Avenue, Cornwall, ON K6H 4L3, Canada", "latitude": 45.01867052101794, "longitude": -74.70982671421375}, "RTwYUuYtOVus1PZBAJmZbQ": {"name": "R\u00f4tisserie St-Hubert", "types": ["Barbeque", "Chicken Shop"], "address": "705 Brookdale Avenue, Cornwall, ON K6J 5C6, Canada", "latitude": 45.02231123097452, "longitude": -74.74621806026754}, "c5FG8v61LhmMrrmOK6iaUg": {"name": "Kelseys Original Roadhouse", "types": ["Comfort Food", "Bars", "Canadian (New)"], "address": "960 Brookdale Avenue, Cornwall, ON K6J 4P5, Canada", "latitude": 45.0240379, "longitude": -74.7493326}, "Yamu4jT7XtZO_l5IuQeEow": {"name": "Billy K's Restaurant", "types": ["Fast Food", "Canadian (New)"], "address": "1131 Brookdale Avenue, Cornwall, ON K6J 4P6, Canada", "latitude": 45.02671, "longitude": -74.75077}, "iaEVrunhwnq7f05TVSCcEA": {"name": "Simply Jennifer", "types": ["Vegan"], "address": "110 Pitt Street, Cornwall, ON K6J 3P4, Canada", "latitude": 45.01699, "longitude": -74.72819}, "IrnZvUhQIjdKk0xEZEsVfw": {"name": "Cornwall Bar-B-Q Pizzeria Restaurant", "types": ["Pizza"], "address": "436 2nd Street W, Cornwall, ON K6J 1H1, Canada", "latitude": 45.01541, "longitude": -74.73881}, "cRwNeDJyQtQ5t33Nx_FEiQ": {"name": "Quesada Burritos & Tacos", "types": ["Mexican"], "address": "1315 Brookdale Avenue, Unit 2, Cornwall, ON K6J 5B3, Canada", "latitude": 45.0293312072754, "longitude": -74.7532653808594}, "tCTsnWoIakQt6CTaZ-8PqA": {"name": "Chinese Buffet Wing Hing", "types": ["Buffets", "Chinese"], "address": "1315 Second Street E, Cornwall, ON K6H 7C4, Canada", "latitude": 45.025652, "longitude": -74.70615}, "rOrpPp1hWTRm5WhqHHKl9Q": {"name": "East Side Mario's", "types": ["Italian", "American (Traditional)", "Pizza"], "address": "1106 Brookdale Avenue, Cornwall, ON K6J 4P4, Canada", "latitude": 45.0255624, "longitude": -74.7507916}, "_RWOxjs_6eSvsAOYSJ9Dyg": {"name": "Sugoi Ramen & Sushi Bar", "types": ["Sushi Bars", "Ramen"], "address": "150 Pitt Street, Cornwall, ON K6J 3P4, Canada", "latitude": 45.017702, "longitude": -74.72859400000002}, "jERVNZNY4KftATGGrUKlSA": {"name": "Riverside Restaurant", "types": ["Pizza"], "address": "837 Montreal road, Cornwall, ON K6H 1C7, Canada", "latitude": 45.018574878191, "longitude": -74.7040594778653}, "bPgYUSKjkof7oxstX6OCmw": {"name": "The Glengarrian Pub", "types": ["Pubs", "Canadian (New)"], "address": "841 Sydney Street, Unit 10, Cornwall, ON K6H 3J7, Canada", "latitude": 45.0292561, "longitude": -74.7322977}, "nU5KEFL4YSgywcMLiDF9fw": {"name": "Love Love Food Cafe & Bistro", "types": ["Salad", "Soup", "Sandwiches"], "address": "109 Pitt Street, Cornwall, ON K6J 3P5, Canada", "latitude": 45.0170506429823, "longitude": -74.7278505563736}, "HRT5d4TLXgMfgNSyDSFt0A": {"name": "Au Vieux Duluth Restaurants", "types": ["Greek"], "address": "1140A  Brookdale Avenue, Cornwall, ON K6J 4P4, Canada", "latitude": 45.0261008, "longitude": -74.7510379}, "pqOn1XnHfZo5wnGqPdj2mA": {"name": "Shah's Halal Restaurant And Grocery", "types": ["Butcher", "Grocery", "Halal"], "address": "18 Third Street E, Cornwall, ON K6H 2C7, Canada", "latitude": 45.01984, "longitude": -74.72857}, "FShsU4uJ2lTWkpkLCTj5Qg": {"name": "The All New Restaurant", "types": ["Breakfast & Brunch", "American (Traditional)", "Pizza"], "address": "17305 Cornwall Centre Road, Cornwall, ON K6K 1K5, Canada", "latitude": 45.0609899, "longitude": -74.76921}, "9aQMhBeVRkKIuKFYZvv3dA": {"name": "Bill's Sports Bar & Deli", "types": ["Delis", "Sandwiches", "Pizza", "Sports Bars"], "address": "441 13th Street W, Cornwall, ON K6J 3H7, Canada", "latitude": 45.03006, "longitude": -74.75137}, "C07xVmbo53PwjyKamQM4vg": {"name": "South Glengarry", "types": ["Restaurants"], "address": "408 Pitt Street, Cornwall, ON K6J 3R2, Canada", "latitude": 45.02144, "longitude": -74.73071}, "6VPYMKxzJAgEc6KrCKvCsQ": {"name": "Olympic Pizza", "types": ["Pizza"], "address": "1255 Pitt Street, Cornwall, ON K6J 3T4, Canada", "latitude": 45.0334, "longitude": -74.73924}, "C7G1PER4JHxsPxSBeq_zhw": {"name": "Louis' Pizzeria", "types": ["Pizza"], "address": "740 1st St E, Cornwall, ON K6H 1M5, Canada", "latitude": 45.02133, "longitude": -74.7124}, "tNvfF3LqUYibekaIyE5yFA": {"name": "West End Shawarma", "types": ["Mediterranean"], "address": "1315 Brookdale Avenue, Cornwall, ON K6J 4P7, Canada", "latitude": 45.0283392851671, "longitude": -74.7527438029647}, "cBNpW1VBf0d-UV0_6S_KIg": {"name": "Jack Lee's Tavern Restaurant", "types": ["Chinese"], "address": "128 Pitt Street, Cornwall, ON K6J 3P4, Canada", "latitude": 45.017251269233874, "longitude": -74.72826445024943}, "n1VJ4MGb39Lg0hhRo2iM3w": {"name": "Shawarma On Wheels", "types": ["Lebanese"], "address": "309 Pitt Street, Cornwall, ON K6J 5H3, Canada", "latitude": 45.020034978995575, "longitude": -74.72950867361747}, "IakQyOmV5yJVi-Kzg_uZmg": {"name": "North End Pizzeria", "types": ["Pizza"], "address": "1542 Pitt Street, Cornwall, ON K6J 3V1, Canada", "latitude": 45.03829, "longitude": -74.74414}, "CB9Z4TJDwMiqi2KzajLbkg": {"name": "Sunnyside Up", "types": ["Breakfast & Brunch"], "address": "1274 Pitt Street, Cornwall, ON K6J 3T5, Canada", "latitude": 45.03353, "longitude": -74.7405}, "D-mSVuCZ4otGowAIxHH-Rw": {"name": "The Spicy Pearl", "types": ["Caribbean"], "address": "9 First Street E, Cornwall, ON K6H 1K5, Canada", "latitude": 45.01699, "longitude": -74.72744}, "oRjOaBUIkjvQT9i-q8Cztg": {"name": "Sunshine Restaurant", "types": ["Chinese", "Seafood", "Soup"], "address": "17305 Cornwall Centre Road, Unit 1, Cornwall, ON K6K 1K5, Canada", "latitude": 45.0611697155538, "longitude": -74.7693825730708}, "sJjZK-bXc_0e5py2iA3PPA": {"name": "Boston Pizza", "types": ["Pizza", "Italian"], "address": "1234 Brookdale Avenue, Cornwall, ON K6J 4P8, Canada", "latitude": 45.0274451, "longitude": -74.7546824}, "8swJxsnr9AfPT2aOyFvMIQ": {"name": "The Village Diner", "types": ["Diners"], "address": "120 Tollgate Road W, Cornwall, ON K6J 5V7, Canada", "latitude": 45.0431404, "longitude": -74.7531433}, "WUdTgaFnkf_CRy0H3Bhx1g": {"name": "Captain George", "types": ["Seafood", "Fish & Chips"], "address": "1195 Second Street W, Cornwall, ON K6J 1J2, Canada", "latitude": 45.01227, "longitude": -74.75908}, "IG07Y8om1otiGmLS6bm_lw": {"name": "Wendy's", "types": ["Fast Food", "Burgers"], "address": "1397 Brookdale Avenue, Cornwall, ON K6J 5X1, Canada", "latitude": 45.03037, "longitude": -74.75353}, "DygaQRpfw2TRPIsHDT01Bg": {"name": "BRUNCH on Pitt", "types": ["Breakfast & Brunch"], "address": "537 Pitt Street, Cornwall, ON K6J 3R4, Canada", "latitude": 45.02407, "longitude": -74.73178}, "A_JXvU2g_tIwddC76z0dwQ": {"name": "Seguin Patates", "types": ["Burgers", "Fast Food", "Hot Dogs"], "address": "921 Marlborough Street N, Cornwall, ON K6H 4B5, Canada", "latitude": 45.0324251, "longitude": -74.7244377}, "_s3HLQVpYcyCWRWFJyJvcg": {"name": "Harv's Diner", "types": ["Diners"], "address": "619 Pitt Street, Cornwall, ON K6J 3R8, Canada", "latitude": 45.02512, "longitude": -74.73217}, "OPUf2DdVnRsvJI7IFTP8wQ": {"name": "Sushi Shop", "types": ["Sushi Bars", "Japanese", "Asian Fusion"], "address": "1232 Brookdale Avenue, Unit E, Cornwall, ON K6J 4P8, Canada", "latitude": 45.0281940292796, "longitude": -74.752691835165}, "CUJlqUe499lHprxMtYQ3xA": {"name": "Cedars", "types": ["Middle Eastern"], "address": "1 Water Street E, Cornwall, ON K6H 6M2, Canada", "latitude": 45.01603, "longitude": -74.72584}, "8lxkL1FroMCDU6Arc0dnlg": {"name": "Pizza Hut", "types": ["Pizza", "Italian"], "address": "1313 Brookdale Avenue, Cornwall, ON K6J 5T9, Canada", "latitude": 45.0295218, "longitude": -74.7540557}, "965dDeMYxcqbuprP5NdVjA": {"name": "Spinners Diner", "types": ["Diners"], "address": "118 Pitt Street, Cornwall, ON K6J 3P4, Canada", "latitude": 45.017157043460095, "longitude": -74.72823062209893}, "JrQsIyD6zWR5R6lqfkzRIA": {"name": "Sub Bay", "types": ["Sandwiches", "Pizza"], "address": "1003 Montreal Road, Cornwall, ON K6H 1E1, Canada", "latitude": 45.01876, "longitude": -74.7022099}, "AdaLQY0D868R0BMoPxl7pQ": {"name": "Tilly's Eatery", "types": ["Cafes", "Bakeries", "Patisserie/Cake Shop"], "address": "101 Pitt Street, Cornwall, ON K6J 3P5, Canada", "latitude": 45.0169432794079, "longitude": -74.72770370543}, "urpONm1QLJ9KRizxbsg81Q": {"name": "Mary Brown's", "types": ["Chicken Shop"], "address": "1718 Vincent Massey Drive, Cornwall, ON K6H 5R6, Canada", "latitude": 45.0309358200652, "longitude": -74.7671784460545}, "ddq0QuCbxEU0E3DTvoNWKQ": {"name": "A&W", "types": ["Burgers", "Fast Food"], "address": "422 Ninth Street W, Smart Centres, Cornwall, ON K6J 4P5, Canada", "latitude": 45.025388129755825, "longitude": -74.7450069}, "HxSo8S4mkwom0SVEkRMyuw": {"name": "Fusion Grill", "types": [], "address": "105 Pitt St, Cornwall, ON K6J 3P5, Canada", "latitude": 45.01696, "longitude": -74.7277}, "Xeiz7mHD_MsPMu0hnqeh3Q": {"name": "Burger King Restaurants", "types": ["Burgers", "Fast Food"], "address": "1319 Brookdale Avenue, Cornwall, ON K6J 4P9, Canada", "latitude": 45.03008, "longitude": -74.75453}, "18VBRUsBlZHh8fXFx4xepg": {"name": "Starbucks", "types": ["Coffee & Tea", "Desserts", "Sandwiches"], "address": "1238 Brookdale Avenue, Cornwall, ON K6J 4P8, Canada", "latitude": 45.0282873911811, "longitude": -74.752839691937}, "m0uEYNosFluLo7salnn-wg": {"name": "241 Pizza", "types": ["Pizza", "Chicken Wings"], "address": "841 Sydney Street, Suite 12, Cornwall, ON K6H 3J7, Canada", "latitude": 45.02925481, "longitude": -74.73163576}, "2bIXHFeaQ23qrUOA0EkILQ": {"name": "Subplace", "types": ["Sandwiches"], "address": "407 Pitt Street, Cornwall, ON K6J 3R3, Canada", "latitude": 45.02158, "longitude": -74.73025}, "b9_A81cmzZGDm4ZZJy26aA": {"name": "Moustache Joe's", "types": ["Canadian (New)"], "address": "109 Pitt Street, Cornwall, ON K6J 3P5, Canada", "latitude": 45.0212762, "longitude": -74.730345}, "aIIj5fcdd__YMaHlv3ju_w": {"name": "Best Famous Pizza", "types": ["Pizza"], "address": "720 14th Street W, Cornwall, ON K6J 5N4, Canada", "latitude": 45.0305427139713, "longitude": -74.7558665884732}, "pivx4AYVNI252FQhCmAu5w": {"name": "King George Restaurant", "types": ["Pizza"], "address": "401 Montreal Road, Cornwall, ON K6H 1B8, Canada", "latitude": 45.01835, "longitude": -74.70947}, "kmSEcqOFom16mxbTNPRjwQ": {"name": "KFC", "types": ["Chicken Wings", "Fast Food", "Chicken Shop"], "address": "1245 Brookdale Avenue, Cornwall, ON K6J 4P7, Canada", "latitude": 45.02888, "longitude": -74.75252}, "hPsf-Ephn6ZtpOvyZdJwUw": {"name": "Pizza Pizza", "types": ["Pizza"], "address": "1334 Second Street E, Cornwall, ON K6H 2B7, Canada", "latitude": 45.0267705, "longitude": -74.7056207}, "ybvUC9CRftbtSAeIQ2FVkg": {"name": "Harvey's & Swiss Chalet Combo", "types": ["Burgers", "Fast Food", "American (Traditional)"], "address": "700 Brookdale Ave, Cornwall, ON K6J 5M2, Canada", "latitude": 45.0210415, "longitude": -74.7466532}, "LbnUk4HUBtgMrm81wVClJw": {"name": "Remington's Deli & Bar", "types": ["Delis", "Sandwiches", "Sports Bars"], "address": "101 Montreal Rd, Cornwall, ON K6H 1B2, Canada", "latitude": 45.01832, "longitude": -74.71522}, "suFYigUjuGLUdJs2Z4DZgA": {"name": "Napoleon Delicatessen", "types": ["Delis", "Sandwiches", "Pizza"], "address": "1 Montreal Road, Cornwall, ON K6H 1A9, Canada", "latitude": 45.01821, "longitude": -74.71632}, "n88bK7O6xVv-yXUrL4rp7Q": {"name": "Burger King Restaurants", "types": ["Hot Dogs", "Burgers", "Fast Food"], "address": "1317 2nd Street E, Cornwall, ON K6H 7C4, Canada", "latitude": 45.0257999, "longitude": -74.7051199}}